ZipCode,City,State,Latitude,Longitude,Classification,Population
75017,IRVING,TX,32.8139,-96.9488,P,0
75024,PLANO,TX,33.0838,-96.8128,,45469
75025,PLANO,TX,33.0906,-96.7408,,53161
75027,FLOWER MOUND,TX,33.0364,-97.0715,P,0
75028,FLOWER MOUND,TX,33.0336,-97.0626,,46830
75035,FRISCO,TX,33.1615,-96.7692,,82596
75038,IRVING,TX,32.875,-96.9833,,32928
75039,IRVING,TX,32.8813,-96.9448,,24569
75040,GARLAND,TX,32.9331,-96.6213,,64035
75043,GARLAND,TX,32.8622,-96.5837,,63973
75052,GRAND PRAIRIE,TX,32.6589,-97.0119,,96225
75056,THE COLONY,TX,33.0724,-96.907,,67570
75058,GUNTER,TX,33.4607,-96.7424,,3799
75059,IRVING,TX,32.8284,-97.0197,U,0
75063,IRVING,TX,32.9195,-96.9774,,46598
75070,MCKINNEY,TX,33.1709,-96.6925,,57712
75074,PLANO,TX,33.0388,-96.6709,,53003
75075,PLANO,TX,33.0192,-96.7384,,36600
75093,PLANO,TX,33.0367,-96.8135,,48081
75094,PLANO,TX,33.0122,-96.6189,,23864
75098,WYLIE,TX,33.023,-96.5389,,67212
75101,BARDWELL,TX,32.2731,-96.7022,P,633
75103,CANTON,TX,32.4954,-95.8963,,15162
75104,CEDAR HILL,TX,32.5899,-96.969,,49749
75132,FATE,TX,32.9411,-96.3827,P,135
75164,JOSEPHINE,TX,33.06,-96.3248,P,335
75221,DALLAS,TX,32.7835,-96.8003,P,0
75222,DALLAS,TX,32.7835,-96.8003,P,0
75260,DALLAS,TX,32.768,-96.8277,,0
75262,DALLAS,TX,32.7803,-96.8055,P,0
75263,DALLAS,TX,32.7803,-96.8055,P,0
75264,DALLAS,TX,32.7835,-96.8001,P,0
75265,DALLAS,TX,32.7835,-96.8001,P,0
75266,DALLAS,TX,32.7835,-96.8001,P,0
75267,DALLAS,TX,32.78,-96.8102,P,0
75270,DALLAS,TX,32.7813,-96.802,,0
75275,DALLAS,TX,32.7835,-96.8001,U,0
75277,DALLAS,TX,32.7835,-96.8001,U,0
75283,DALLAS,TX,32.7835,-96.8001,U,0
75284,DALLAS,TX,32.7835,-96.8001,U,0
75285,DALLAS,TX,32.7835,-96.8001,U,0
75301,DALLAS,TX,32.7835,-96.8001,U,0
75303,DALLAS,TX,32.7835,-96.8001,U,0
75312,DALLAS,TX,32.7835,-96.8001,U,0
75313,DALLAS,TX,32.7835,-96.8001,P,0
75315,DALLAS,TX,32.7835,-96.8001,P,0
75320,DALLAS,TX,32.7835,-96.8001,U,0
75326,DALLAS,TX,32.7835,-96.8001,U,0
75336,DALLAS,TX,32.7835,-96.8001,P,0
75339,DALLAS,TX,32.7835,-96.8001,P,0
75342,DALLAS,TX,32.7803,-96.81,P,0
75354,DALLAS,TX,32.7835,-96.8001,P,0
75355,DALLAS,TX,32.7835,-96.8001,P,0
75356,DALLAS,TX,32.7835,-96.8001,P,0
75357,DALLAS,TX,32.7835,-96.8001,P,0
75358,DALLAS,TX,32.7696,-96.8304,U,0
75359,DALLAS,TX,32.7835,-96.8001,P,0
75360,DALLAS,TX,32.7835,-96.8001,P,0
75367,DALLAS,TX,32.7835,-96.8001,P,0
75368,DALLAS,TX,32.6739,-97.0872,U,0
75370,DALLAS,TX,32.7803,-96.81,P,0
75371,DALLAS,TX,32.7835,-96.8001,P,0
75372,DALLAS,TX,32.7835,-96.8001,P,0
75373,DALLAS,TX,32.7835,-96.8001,U,0
75374,DALLAS,TX,32.7835,-96.8001,P,0
75376,DALLAS,TX,32.7835,-96.8001,P,0
75378,DALLAS,TX,32.7835,-96.8001,P,0
75379,DALLAS,TX,32.7835,-96.8001,P,0
75380,DALLAS,TX,32.7835,-96.8001,P,0
75381,DALLAS,TX,32.7835,-96.8001,P,0
75382,DALLAS,TX,32.7835,-96.8001,P,0
75389,DALLAS,TX,32.7835,-96.8001,U,0
75410,ALBA,TX,32.7816,-95.6081,,5073
75411,ARTHUR CITY,TX,33.8633,-95.6437,,1279
75412,BAGWELL,TX,33.8385,-95.1108,,604
75413,BAILEY,TX,33.4301,-96.1662,P,179
75414,BELLS,TX,33.6255,-96.4366,,3507
75415,BEN FRANKLIN,TX,33.4732,-95.7794,,212
75416,BLOSSOM,TX,33.673,-95.3346,,2848
75417,BOGATA,TX,33.4728,-95.0702,,2361
75420,BRASHEAR,TX,33.1194,-95.7358,,1206
75422,CAMPBELL,TX,33.1396,-95.9343,,2902
75424,BLUE RIDGE,TX,33.3154,-96.3935,,4517
75425,CHICOTA,TX,33.8673,-95.5696,P,0
75426,CLARKSVILLE,TX,33.6272,-94.9744,,4717
75429,COMMERCE,TX,33.2467,-95.8998,P,9
75431,COMO,TX,33.0065,-95.4654,,2101
75434,CUNNINGHAM,TX,33.4091,-95.371,P,81
75435,DEPORT,TX,33.4934,-95.3399,,994
75436,DETROIT,TX,33.6838,-95.2221,,2130
75437,DIKE,TX,33.192,-95.4369,,1199
75438,DODD CITY,TX,33.5601,-96.0496,,963
75439,ECTOR,TX,33.5951,-96.2818,,923
75441,ENLOE,TX,33.429,-95.6518,P,113
75442,FARMERSVILLE,TX,33.1699,-96.3404,,11241
75443,GOBER,TX,33.4697,-96.0893,P,0
75444,GOLDEN,TX,32.7292,-95.5636,P,0
75446,HONEY GROVE,TX,33.6402,-95.9245,,3355
75447,IVANHOE,TX,33.768,-96.1207,,1161
75449,LADONIA,TX,33.4233,-95.951,,1116
75450,LAKE CREEK,TX,33.4132,-95.4935,,293
75451,LEESBURG,TX,32.9651,-95.0944,,1256
75452,LEONARD,TX,33.4032,-96.2063,,4802
75453,LONE OAK,TX,32.9907,-95.9397,,3737
75455,MOUNT PLEASANT,TX,33.2348,-94.9462,,27305
75456,MOUNT PLEASANT,TX,33.1564,-94.9684,P,0
75457,MOUNT VERNON,TX,33.2062,-95.2165,,5991
75460,PARIS,TX,33.6498,-95.6017,,22925
75461,PARIS,TX,33.6606,-95.5556,P,0
75468,PATTONVILLE,TX,33.5625,-95.3935,,928
75469,PECAN GAP,TX,33.4077,-95.7945,,394
75470,PETTY,TX,33.6103,-95.7826,,229
75471,PICKTON,TX,33.0445,-95.3906,,1243
75473,POWDERLY,TX,33.8006,-95.499,,3660
75475,RANDOLPH,TX,33.4891,-96.2644,P,150
75476,RAVENNA,TX,33.7061,-96.2432,,1214
75477,ROXTON,TX,33.5383,-95.7508,,854
75478,SALTILLO,TX,33.2092,-95.3747,,1006
75479,SAVOY,TX,33.6007,-96.3194,,1861
75480,SCROGGINS,TX,33.0218,-95.1887,,1582
75481,SULPHUR BLUFF,TX,33.3289,-95.3631,,389
75485,WESTMINSTER,TX,33.3624,-96.4635,P,0
75486,SUMNER,TX,33.785,-95.6886,,2698
75487,TALCO,TX,33.3359,-95.171,,1511
75488,TELEPHONE,TX,33.8098,-96.0162,,1144
75489,TOM BEAN,TX,33.5243,-96.4836,P,1028
75490,TRENTON,TX,33.4004,-96.3278,,2809
75492,WINDOM,TX,33.5676,-95.998,,562
75493,WINFIELD,TX,33.1439,-95.0678,P,497
75495,VAN ALSTYNE,TX,33.4283,-96.5463,,9061
75496,WOLFE CITY,TX,33.3215,-96.055,,3438
75497,YANTIS,TX,32.8953,-95.5269,,3679
75501,TEXARKANA,TX,33.3672,-94.2356,,36423
75503,TEXARKANA,TX,33.5172,-94.1302,,25547
75504,TEXARKANA,TX,33.425,-94.0478,P,0
75505,TEXARKANA,TX,33.425,-94.0478,P,0
75507,TEXARKANA,TX,33.425,-94.0478,U,0
75550,ANNONA,TX,33.5037,-94.895,,602
75551,ATLANTA,TX,33.0985,-94.1595,,10372
75554,AVERY,TX,33.57,-94.7834,,1530
75555,BIVINS,TX,32.9598,-94.1531,,1719
75556,BLOOMBURG,TX,33.1559,-94.0639,,1131
75558,COOKVILLE,TX,33.2491,-94.8588,,1518
75559,DE KALB,TX,33.4814,-94.5786,,5472
75560,DOUGLASSVILLE,TX,33.205,-94.3549,,920
75561,HOOKS,TX,33.4818,-94.2955,,4875
75562,KILDARE,TX,32.9468,-94.2539,P,116
75563,LINDEN,TX,33.003,-94.3883,,3794
75564,LODI,TX,32.8718,-94.273,P,9
75565,MC LEOD,TX,32.951,-94.0809,P,106
75566,MARIETTA,TX,33.1546,-94.4899,,676
75567,MAUD,TX,33.3305,-94.3046,,3770
75568,NAPLES,TX,33.1993,-94.5906,,2939
75569,NASH,TX,33.4433,-94.1319,,3338
75570,NEW BOSTON,TX,33.4548,-94.45,,11315
75571,OMAHA,TX,33.2231,-94.7697,,2607
75572,QUEEN CITY,TX,33.2175,-94.1492,,3387
75573,REDWATER,TX,33.349,-94.2647,P,275
75574,SIMMS,TX,33.3318,-94.5582,,1695
75599,TEXARKANA,TX,33.4453,-94.0789,U,0
75615,LONGVIEW,TX,32.5006,-94.7405,P,0
75630,AVINGER,TX,32.8668,-94.5694,,2650
75636,CASON,TX,33.024,-94.8242,P,0
75637,CLAYTON,TX,32.0984,-94.4747,P,0
75638,DAINGERFIELD,TX,33.0388,-94.7366,,5434
75639,DE BERRY,TX,32.2773,-94.1953,,2716
75640,DIANA,TX,32.7124,-94.6953,,5438
75641,EASTON,TX,32.3855,-94.5535,P,139
75642,ELYSIAN FIELDS,TX,32.3685,-94.1826,P,194
75643,GARY,TX,32.0095,-94.359,,2046
75644,GILMER,TX,32.7749,-94.9891,,11720
75645,GILMER,TX,32.6862,-94.8936,,10724
75651,HARLETON,TX,32.6713,-94.5019,,2075
75656,HUGHES SPRINGS,TX,33.0386,-94.5987,,4558
75657,JEFFERSON,TX,32.7756,-94.3552,,7923
75658,JOINERVILLE,TX,32.1779,-94.9009,P,210
75659,JONESVILLE,TX,32.4979,-94.1105,P,59
75660,JUDSON,TX,32.5826,-94.7535,P,0
75661,KARNACK,TX,32.6395,-94.1674,,2381
75666,LAIRD HILL,TX,32.3532,-94.9055,P,0
75667,LANEVILLE,TX,31.9583,-94.8451,,1227
75668,LONE STAR,TX,32.9307,-94.7049,,1672
75669,LONG BRANCH,TX,32.0342,-94.5072,,589
75680,MINDEN,TX,32.1531,-94.7993,P,14
75681,MOUNT ENTERPRISE,TX,31.9358,-94.6431,,2674
75683,ORE CITY,TX,32.8087,-94.7292,,3773
75685,PANOLA,TX,32.3555,-94.0955,P,0
75686,PITTSBURG,TX,32.9843,-94.9275,,13293
75687,PRICE,TX,32.1176,-94.9899,P,7
75688,SCOTTSVILLE,TX,32.5405,-94.2383,P,0
75689,SELMAN CITY,TX,32.1751,-94.9519,P,212
75692,WASKOM,TX,32.4728,-94.1195,,5098
75693,WHITE OAK,TX,32.5372,-94.8596,,6512
75694,WOODLAWN,TX,32.6684,-94.3456,P,0
75752,ATHENS,TX,32.2494,-95.8121,,7439
75754,BEN WHEELER,TX,32.4248,-95.6514,,6632
75755,BIG SANDY,TX,32.6316,-95.0929,,5250
75758,CHANDLER,TX,32.2532,-95.5535,,9890
75759,CUNEY,TX,32.0416,-95.4199,P,122
75764,GALLATIN,TX,31.8884,-95.1506,P,178
75765,HAWKINS,TX,32.6625,-95.2541,,7728
75772,MAYDELLE,TX,31.8006,-95.3025,P,0
75773,MINEOLA,TX,32.6642,-95.4704,,13559
75779,NECHES,TX,31.8667,-95.4958,P,80
75780,NEW SUMMERFIELD,TX,31.9808,-95.0939,P,481
75782,POYNOR,TX,32.0796,-95.5938,P,85
75783,QUITMAN,TX,32.7939,-95.4261,,7763
75784,REKLAW,TX,31.8783,-94.9632,,542
75789,TROUP,TX,32.0538,-95.1509,,8045
75792,WINONA,TX,32.4749,-95.107,,3595
75797,BIG SANDY,TX,32.5872,-95.1147,U,0
75798,TYLER,TX,32.3351,-95.2829,U,0
75832,CAYUGA,TX,31.9566,-95.9746,P,0
75834,CENTRALIA,TX,31.2579,-95.0399,,0
75838,DONIE,TX,31.483,-96.23,,525
75847,KENNARD,TX,31.3429,-95.1067,,1547
75848,KIRVIN,TX,31.8231,-96.3217,P,88
75849,LATEXO,TX,31.4064,-95.472,P,95
75850,LEONA,TX,31.1415,-95.8959,,596
75852,MIDWAY,TX,30.9819,-95.7545,,3621
75853,MONTALBA,TX,31.9379,-95.8151,,970
75855,OAKWOOD,TX,31.5123,-95.837,,2242
75856,PENNINGTON,TX,31.184,-95.2021,,195
75858,RATCLIFF,TX,31.3833,-95.0619,P,100
75859,STREETMAN,TX,31.8866,-96.2357,,2212
75865,WOODLAKE,TX,31.0286,-95.0328,P,22
75880,TENNESSEE COLONY,TX,31.8355,-95.8386,U,0
75884,TENNESSEE COLONY,TX,31.8355,-95.8386,U,4156
75886,TENNESSEE COLONY,TX,31.809,-95.9038,U,2959
75925,ALTO,TX,31.6477,-95.0887,,3635
75926,APPLE SPRINGS,TX,31.2803,-94.9682,,1066
75928,BON WIER,TX,30.678,-93.7408,,1181
75929,BROADDUS,TX,31.2496,-94.1918,,1415
75930,BRONSON,TX,31.3312,-94.0309,,1954
75931,BROOKELAND,TX,31.123,-94.0297,,2446
75932,BURKEVILLE,TX,30.9799,-93.6409,,1331
75933,CALL,TX,30.5199,-93.8048,,1290
75934,CAMDEN,TX,30.8999,-94.7547,P,71
75936,CHESTER,TX,30.9462,-94.5907,,848
75938,COLMESNEIL,TX,30.9039,-94.3332,,2432
75942,DOUCETTE,TX,30.8173,-94.3979,P,125
75948,HEMPHILL,TX,31.2906,-93.7695,,5582
75951,JASPER,TX,30.9355,-94.1631,,14370
75956,KIRBYVILLE,TX,30.696,-94.0061,,7435
75959,MILAM,TX,31.4968,-93.8385,,821
75960,MOSCOW,TX,30.9214,-94.9102,,816
75966,NEWTON,TX,30.8576,-93.7272,,4209
75968,PINELAND,TX,31.2156,-93.9739,,1819
75974,TENAHA,TX,31.9342,-94.2571,,2860
75975,TIMPSON,TX,31.8252,-94.3756,,3373
75976,WELLS,TX,31.5099,-95.0005,P,1047
75977,WIERGATE,TX,31.0672,-93.8053,,570
75980,ZAVALLA,TX,31.141,-94.3184,,2453
75990,WOODVILLE,TX,30.7753,-94.4156,U,0
76041,FORRESTON,TX,32.2425,-96.8645,,395
76061,LILLIAN,TX,32.5037,-97.1746,P,192
76068,MINERAL WELLS,TX,32.8086,-98.1125,P,0
76077,RAINBOW,TX,32.2819,-97.7038,,555
76101,FORT WORTH,TX,32.7254,-97.3208,P,0
76147,FORT WORTH,TX,32.7254,-97.3208,P,0
76150,FORT WORTH,TX,32.7254,-97.3208,U,0
76155,FORT WORTH,TX,32.8175,-97.0525,,5647
76161,FORT WORTH,TX,32.7254,-97.3208,P,0
76162,FORT WORTH,TX,32.7254,-97.3208,P,0
76163,FORT WORTH,TX,32.7254,-97.3208,P,0
76166,FORT WORTH,TX,32.73,-97.32,U,0
76181,FORT WORTH,TX,32.7254,-97.3208,P,0
76185,FORT WORTH,TX,32.7254,-97.3208,P,0
76190,FORT WORTH,TX,32.8314,-97.3033,U,0
76191,FORT WORTH,TX,32.7254,-97.3208,U,0
76192,FORT WORTH,TX,32.7254,-97.3208,U,0
76193,FORT WORTH,TX,32.7254,-97.3208,U,0
76195,FORT WORTH,TX,32.7254,-97.3208,U,0
76196,FORT WORTH,TX,32.7574,-97.3374,U,0
76197,FORT WORTH,TX,32.7254,-97.3208,U,0
76198,FORT WORTH,TX,32.7254,-97.3208,U,0
76199,FORT WORTH,TX,32.7254,-97.3208,U,0
76306,WICHITA FALLS,TX,33.9517,-98.5134,,14664
76307,WICHITA FALLS,TX,33.9136,-98.4933,P,0
76311,SHEPPARD AFB,TX,33.9847,-98.5039,,6349
76352,BLUEGROVE,TX,33.6736,-98.2298,P,0
76357,BYERS,TX,34.0882,-98.1559,,685
76363,GOREE,TX,33.4998,-99.5347,,231
76366,HOLLIDAY,TX,33.6154,-98.7174,,2023
76369,KAMAY,TX,33.8579,-98.8075,P,0
76371,MUNDAY,TX,33.4912,-99.668,,1513
76377,PETROLIA,TX,34.0273,-98.285,,592
76379,SCOTLAND,TX,33.6401,-98.5027,,519
76385,VERNON,TX,34.1545,-99.2647,P,0
76439,DENNIS,TX,32.6187,-97.9267,P,28
76459,JERMYN,TX,33.2602,-98.3979,,184
76461,LINGLEVILLE,TX,32.2445,-98.3775,P,0
76465,MORGAN MILL,TX,32.3884,-98.1668,P,0
76466,OLDEN,TX,32.4378,-98.7361,P,156
76467,PALUXY,TX,32.2707,-97.9075,P,0
76468,PROCTOR,TX,31.9963,-98.4003,P,0
76485,PEASTER,TX,32.8717,-97.8666,P,0
76490,WHITT,TX,32.9471,-98.0337,,99
76491,WOODSON,TX,33.0617,-99.0709,,387
76518,BUCKHOLTS,TX,30.8799,-97.1314,,1220
76523,DAVILLA,TX,30.7812,-97.165,P,181
76524,EDDY,TX,31.2653,-97.2274,,2700
76526,FLAT,TX,31.3138,-97.551,P,0
76530,GRANGER,TX,30.7054,-97.4203,,2654
76558,MOUND,TX,31.3505,-97.6369,P,0
76561,OGLESBY,TX,31.4232,-97.5584,,1062
76565,POTTSVILLE,TX,31.6446,-98.3355,,73
76566,PURMELA,TX,31.4896,-97.9799,,355
76570,ROSEBUD,TX,31.1015,-96.9783,,2376
76573,SCHWERTNER,TX,30.8154,-97.5146,P,26
76578,THRALL,TX,30.5287,-97.2377,,1817
76596,GATESVILLE,TX,31.4763,-97.7271,U,1159
76597,GATESVILLE,TX,31.4864,-97.7068,U,3233
76598,GATESVILLE,TX,31.4755,-97.7351,U,440
76599,GATESVILLE,TX,31.4727,-97.7387,U,1367
76622,AQUILLA,TX,31.8478,-97.244,,1148
76623,AVALON,TX,32.2046,-96.7892,P,208
76624,AXTELL,TX,31.6742,-96.9592,,2487
76626,BLOOMING GROVE,TX,32.0765,-96.6867,,1662
76627,BLUM,TX,32.1021,-97.3725,,1687
76629,BREMOND,TX,31.1248,-96.6581,,1980
76630,BRUCEVILLE,TX,31.3471,-97.22,,1878
76632,CHILTON,TX,31.3098,-97.1001,,1544
76637,CRANFILLS GAP,TX,31.777,-97.7788,,485
76638,CRAWFORD,TX,31.5441,-97.4486,,3130
76639,DAWSON,TX,31.8793,-96.6654,,1621
76640,ELM MOTT,TX,31.6835,-97.0682,,3063
76644,LAGUNA PARK,TX,31.8049,-97.4831,P,0
76648,HUBBARD,TX,31.8401,-96.8092,,2520
76650,IRENE,TX,31.9908,-96.8709,P,46
76652,KOPPERL,TX,32.1156,-97.5919,,1078
76653,KOSSE,TX,31.3442,-96.5752,,1145
76654,LEROY,TX,31.7308,-97.0155,P,132
76656,LOTT,TX,31.1785,-97.0689,,2229
76660,MALONE,TX,31.9301,-96.8982,,484
76665,MERIDIAN,TX,31.9113,-97.6111,,2390
76666,MERTENS,TX,32.0216,-96.9081,,305
76671,MORGAN,TX,32.0025,-97.5319,,1988
76676,PENELOPE,TX,31.8735,-96.9551,,315
76678,PRAIRIE HILL,TX,31.6384,-96.7393,,111
76679,PURDON,TX,31.9282,-96.5893,,1442
76681,RICHLAND,TX,31.9208,-96.4343,,520
76684,ROSS,TX,31.7184,-97.1186,P,0
76685,SATIN,TX,31.3602,-97.0108,,91
76686,TEHUACANA,TX,31.7573,-96.5431,P,242
76687,THORNTON,TX,31.4045,-96.4955,,1500
76689,VALLEY MILLS,TX,31.6244,-97.5449,,3991
76691,WEST,TX,31.7801,-97.1005,,6588
76802,EARLY,TX,31.7789,-98.9045,,5503
76803,EARLY,TX,31.7094,-98.9908,P,0
76804,BROWNWOOD,TX,31.7094,-98.9908,P,0
76828,BURKETT,TX,31.998,-99.3104,,175
76831,CASTELL,TX,30.767,-98.9543,,31
76836,DOOLE,TX,31.4172,-99.5368,,54
76837,EDEN,TX,31.2661,-99.8584,,2313
76841,FORT MC KAVETT,TX,30.839,-100.0577,,73
76842,FREDONIA,TX,30.9077,-99.1399,,218
76845,GOULDBUSK,TX,31.5394,-99.4487,,183
76848,HEXT,TX,30.8804,-99.5498,,68
76855,LOWAKE,TX,31.5667,-100.0787,P,0
76865,NORTON,TX,31.8692,-100.1311,,123
76866,PAINT ROCK,TX,31.4294,-99.8423,,627
76869,PONTOTOC,TX,30.861,-99.031,,52
76874,ROOSEVELT,TX,30.4808,-100.1338,,55
76880,STAR,TX,31.4735,-98.3834,P,16
76882,TALPA,TX,31.8282,-99.7571,,309
76883,TELEGRAPH,TX,30.3019,-99.8841,,0
76884,VALERA,TX,31.7041,-99.5427,,117
76885,VALLEY SPRING,TX,30.8704,-98.8657,,133
76886,VERIBEST,TX,31.4759,-100.2597,P,0
76887,VOCA,TX,30.9932,-99.1572,,118
76888,VOSS,TX,31.5941,-99.6324,,117
76902,SAN ANGELO,TX,31.4638,-100.4368,P,5
76906,SAN ANGELO,TX,31.4638,-100.4368,P,0
76909,SAN ANGELO,TX,31.4414,-100.4663,U,195
76930,BARNHART,TX,31.1897,-101.1852,P,115
76935,CHRISTOVAL,TX,31.1733,-100.517,,1714
76936,ELDORADO,TX,30.8812,-100.7019,,2357
76937,EOLA,TX,31.3484,-100.1037,,122
76939,KNICKERBOCKER,TX,31.2667,-100.6244,P,28
76940,MERETA,TX,31.4321,-100.1242,,128
76949,SILVER,TX,32.0322,-100.6994,,0
76953,TENNYSON,TX,31.7333,-100.3471,P,51
76955,VANCOURT,TX,31.2976,-100.1159,,137
76957,WALL,TX,31.3535,-100.2007,,68
76958,WATER VALLEY,TX,31.6452,-100.716,P,301
77001,HOUSTON,TX,29.7634,-95.3634,P,0
77002,HOUSTON,TX,29.7502,-95.3677,,19844
77003,HOUSTON,TX,29.7488,-95.3438,,11874
77004,HOUSTON,TX,29.7272,-95.3618,,37005
77005,HOUSTON,TX,29.7174,-95.4187,,28241
77006,HOUSTON,TX,29.7396,-95.3883,,24129
77007,HOUSTON,TX,29.7704,-95.4106,,42908
77008,HOUSTON,TX,29.7983,-95.4191,,36631
77009,HOUSTON,TX,29.7923,-95.3688,,36425
77010,HOUSTON,TX,29.7537,-95.3596,,883
77011,HOUSTON,TX,29.7418,-95.3094,,16841
77012,HOUSTON,TX,29.7237,-95.2592,,18397
77013,HOUSTON,TX,29.7975,-95.2422,,16815
77014,HOUSTON,TX,29.9857,-95.459,,35161
77015,HOUSTON,TX,29.7676,-95.1588,,57106
77016,HOUSTON,TX,29.8558,-95.296,,29966
77017,HOUSTON,TX,29.6823,-95.2572,,31659
77018,HOUSTON,TX,29.8266,-95.4256,,27870
77019,HOUSTON,TX,29.7525,-95.4117,,24136
77020,HOUSTON,TX,29.7731,-95.3163,,24846
77021,HOUSTON,TX,29.6949,-95.3567,,28055
77022,HOUSTON,TX,29.83,-95.3764,,28748
77023,HOUSTON,TX,29.721,-95.3144,,26780
77024,HOUSTON,TX,29.7638,-95.5005,,39565
77025,HOUSTON,TX,29.6799,-95.4311,,28510
77026,HOUSTON,TX,29.7964,-95.3269,,23405
77027,HOUSTON,TX,29.7463,-95.4475,,18987
77028,HOUSTON,TX,29.8228,-95.2969,,18701
77029,HOUSTON,TX,29.7617,-95.2552,,17044
77030,HOUSTON,TX,29.7084,-95.4019,,13221
77031,HOUSTON,TX,29.657,-95.5497,,15678
77032,HOUSTON,TX,29.9502,-95.3399,,13497
77033,HOUSTON,TX,29.6683,-95.3356,,28369
77034,HOUSTON,TX,29.6196,-95.1952,,38186
77035,HOUSTON,TX,29.6503,-95.4786,,37417
77036,HOUSTON,TX,29.6935,-95.5256,,75870
77037,HOUSTON,TX,29.9008,-95.3894,,19569
77038,HOUSTON,TX,29.92,-95.4424,,30483
77039,HOUSTON,TX,29.9108,-95.3379,,28740
77040,HOUSTON,TX,29.8681,-95.5359,,49524
77041,HOUSTON,TX,29.873,-95.5655,,35958
77042,HOUSTON,TX,29.7419,-95.5582,,41177
77043,HOUSTON,TX,29.8084,-95.5717,,26281
77044,HOUSTON,TX,29.9059,-95.1703,,55665
77045,HOUSTON,TX,29.6411,-95.4262,,32411
77046,HOUSTON,TX,29.7316,-95.4348,,1742
77047,HOUSTON,TX,29.6143,-95.391,,32088
77048,HOUSTON,TX,29.6202,-95.3268,,20536
77049,HOUSTON,TX,29.8415,-95.1463,,38788
77050,HOUSTON,TX,29.9028,-95.2717,,5004
77051,HOUSTON,TX,29.6561,-95.3774,,18323
77052,HOUSTON,TX,29.7634,-95.3631,P,0
77053,HOUSTON,TX,29.5893,-95.4643,,30350
77054,HOUSTON,TX,29.6783,-95.4095,,24419
77055,HOUSTON,TX,29.8049,-95.4916,,42766
77056,HOUSTON,TX,29.7492,-95.4674,,24115
77057,HOUSTON,TX,29.7483,-95.4889,,43669
77058,HOUSTON,TX,29.5627,-95.0922,,19442
77059,HOUSTON,TX,29.6092,-95.1199,,18568
77060,HOUSTON,TX,29.934,-95.396,,42707
77061,HOUSTON,TX,29.6528,-95.2834,,23398
77062,HOUSTON,TX,29.5725,-95.1359,,25095
77063,HOUSTON,TX,29.7399,-95.5238,,38298
77064,HOUSTON,TX,29.9307,-95.5428,,48243
77065,HOUSTON,TX,29.9215,-95.6094,,37144
77066,HOUSTON,TX,29.9626,-95.4994,,34443
77067,HOUSTON,TX,29.9519,-95.4475,,31729
77068,HOUSTON,TX,30.0062,-95.4879,,11764
77069,HOUSTON,TX,29.9864,-95.5259,,19299
77070,HOUSTON,TX,29.9778,-95.5756,,52943
77071,HOUSTON,TX,29.6511,-95.5224,,26949
77072,HOUSTON,TX,29.7006,-95.5857,,56271
77073,HOUSTON,TX,30.0028,-95.3941,,46071
77074,HOUSTON,TX,29.6898,-95.5266,,40199
77075,HOUSTON,TX,29.6234,-95.2636,,38873
77076,HOUSTON,TX,29.8605,-95.3833,,32349
77077,HOUSTON,TX,29.755,-95.6095,,61302
77078,HOUSTON,TX,29.8514,-95.2587,,14855
77079,HOUSTON,TX,29.775,-95.6019,,36404
77080,HOUSTON,TX,29.8139,-95.5196,,45428
77081,HOUSTON,TX,29.7084,-95.4752,,48293
77082,HOUSTON,TX,29.722,-95.6319,,57493
77083,HOUSTON,TX,29.6916,-95.6512,,73763
77084,HOUSTON,TX,29.8326,-95.6482,,109808
77085,HOUSTON,TX,29.6258,-95.492,,17785
77086,HOUSTON,TX,29.9218,-95.4946,,29366
77087,HOUSTON,TX,29.6858,-95.2998,,34654
77088,HOUSTON,TX,29.8814,-95.4544,,54320
77089,HOUSTON,TX,29.5885,-95.2254,,56994
77090,HOUSTON,TX,30.0018,-95.4474,,42285
77091,HOUSTON,TX,29.8554,-95.4448,,28020
77092,HOUSTON,TX,29.8301,-95.4675,,34903
77093,HOUSTON,TX,29.8574,-95.3381,,47736
77094,HOUSTON,TX,29.7726,-95.6882,,11150
77095,HOUSTON,TX,29.9145,-95.6531,,71206
77096,HOUSTON,TX,29.6736,-95.4777,,34510
77098,HOUSTON,TX,29.7344,-95.4159,,15717
77099,HOUSTON,TX,29.6689,-95.5876,,49849
77201,HOUSTON,TX,29.7655,-95.3592,,0
77202,HOUSTON,TX,29.7625,-95.3616,P,0
77203,HOUSTON,TX,29.7634,-95.3627,P,0
77204,HOUSTON,TX,29.7221,-95.3419,U,4280
77205,HOUSTON,TX,29.9818,-95.3481,P,0
77206,HOUSTON,TX,29.7632,-95.3633,P,0
77207,HOUSTON,TX,29.7632,-95.3633,P,0
77208,HOUSTON,TX,29.7632,-95.3633,P,0
77210,HOUSTON,TX,29.7632,-95.3633,P,0
77212,HOUSTON,TX,29.7632,-95.3633,U,0
77213,HOUSTON,TX,29.7632,-95.3633,P,0
77215,HOUSTON,TX,29.7632,-95.3633,P,0
77216,HOUSTON,TX,29.7632,-95.3633,U,0
77217,HOUSTON,TX,29.7632,-95.3633,P,0
77218,HOUSTON,TX,29.7858,-95.6765,P,0
77219,HOUSTON,TX,29.7632,-95.3633,P,0
77220,HOUSTON,TX,29.7632,-95.3633,P,0
77221,HOUSTON,TX,29.7632,-95.3633,P,0
77222,HOUSTON,TX,29.7632,-95.3633,P,0
77223,HOUSTON,TX,29.7632,-95.3633,P,0
77224,HOUSTON,TX,29.7632,-95.3633,P,0
77225,HOUSTON,TX,29.7632,-95.3633,P,0
77226,HOUSTON,TX,29.7632,-95.3633,P,0
77227,HOUSTON,TX,29.7632,-95.3633,P,0
77228,HOUSTON,TX,29.7632,-95.3633,P,0
77229,HOUSTON,TX,29.7632,-95.3633,P,0
77230,HOUSTON,TX,29.7632,-95.3633,P,0
77231,HOUSTON,TX,29.7632,-95.3633,P,0
77233,HOUSTON,TX,29.7632,-95.3633,P,0
77234,HOUSTON,TX,29.7632,-95.3633,P,0
77235,HOUSTON,TX,29.7632,-95.3633,P,0
77236,HOUSTON,TX,29.7632,-95.3633,P,0
77237,HOUSTON,TX,29.7632,-95.3633,P,0
77238,HOUSTON,TX,29.7632,-95.3633,P,0
77240,HOUSTON,TX,29.7632,-95.3633,P,0
77241,HOUSTON,TX,29.7632,-95.3633,P,0
77242,HOUSTON,TX,29.7632,-95.3633,P,0
77243,HOUSTON,TX,29.7632,-95.3633,P,0
77244,HOUSTON,TX,29.7632,-95.3633,P,0
77245,HOUSTON,TX,29.7632,-95.3633,P,0
77248,HOUSTON,TX,29.7632,-95.3633,P,0
77249,HOUSTON,TX,29.7632,-95.3633,P,0
77251,HOUSTON,TX,29.7632,-95.3633,P,0
77252,HOUSTON,TX,29.7632,-95.3633,P,0
77253,HOUSTON,TX,29.7632,-95.3633,P,0
77254,HOUSTON,TX,29.7632,-95.3633,P,0
77255,HOUSTON,TX,29.7632,-95.3633,P,0
77256,HOUSTON,TX,29.7632,-95.3633,P,0
77257,HOUSTON,TX,29.7632,-95.3633,P,0
77258,HOUSTON,TX,29.7632,-95.3633,P,0
77259,HOUSTON,TX,29.7632,-95.3633,P,0
77261,HOUSTON,TX,29.7632,-95.3633,P,0
77262,HOUSTON,TX,29.7632,-95.3633,P,0
77263,HOUSTON,TX,29.7632,-95.3633,P,0
77265,HOUSTON,TX,29.7632,-95.3633,P,0
77266,HOUSTON,TX,29.7632,-95.3633,P,0
77267,HOUSTON,TX,29.7632,-95.3633,P,0
77268,HOUSTON,TX,29.7632,-95.3633,P,0
77269,HOUSTON,TX,29.7632,-95.3633,P,0
77270,HOUSTON,TX,29.7632,-95.3633,P,0
77271,HOUSTON,TX,29.7632,-95.3633,P,0
77272,HOUSTON,TX,29.7632,-95.3633,P,0
77273,HOUSTON,TX,29.7632,-95.3633,P,0
77274,HOUSTON,TX,29.7632,-95.3633,P,0
77275,HOUSTON,TX,29.7632,-95.3633,P,0
77277,HOUSTON,TX,29.7632,-95.3633,P,0
77279,HOUSTON,TX,29.7632,-95.3633,P,0
77280,HOUSTON,TX,29.7632,-95.3633,P,0
77282,HOUSTON,TX,29.7632,-95.3633,P,0
77284,HOUSTON,TX,29.7632,-95.3633,P,0
77287,HOUSTON,TX,29.7632,-95.3633,P,0
77288,HOUSTON,TX,29.7632,-95.3633,P,0
77289,HOUSTON,TX,29.7632,-95.3633,P,0
77290,HOUSTON,TX,29.7632,-95.3633,P,0
77291,HOUSTON,TX,29.7632,-95.3633,P,0
77292,HOUSTON,TX,29.7632,-95.3633,P,0
77293,HOUSTON,TX,29.7632,-95.3633,P,0
77297,HOUSTON,TX,29.7632,-95.3633,U,0
77299,HOUSTON,TX,29.7632,-95.3633,U,0
77302,CONROE,TX,30.224,-95.365,,19384
77303,CONROE,TX,30.3811,-95.3747,,20974
77304,CONROE,TX,30.3218,-95.5222,,35969
77306,CONROE,TX,30.2671,-95.3167,,15127
77315,NORTH HOUSTON,TX,29.9255,-95.5152,,0
77325,KINGWOOD,TX,29.9987,-95.2618,P,0
77326,ACE,TX,30.5077,-94.818,P,137
77327,CLEVELAND,TX,30.2979,-94.9051,,32269
77328,CLEVELAND,TX,30.408,-95.1884,,17071
77331,COLDSPRING,TX,30.6038,-95.1475,,6953
77332,DALLARDSVILLE,TX,30.6283,-94.6318,P,0
77333,DOBBIN,TX,30.3365,-95.7722,P,0
77334,DODGE,TX,30.7855,-95.3653,P,139
77335,GOODRICH,TX,30.6019,-94.9314,,1937
77336,HUFFMAN,TX,30.077,-95.1015,,14881
77337,HUFSMITH,TX,30.1218,-95.5964,P,0
77338,HUMBLE,TX,30.0095,-95.293,,45031
77339,KINGWOOD,TX,30.053,-95.2227,,43076
77345,KINGWOOD,TX,30.0598,-95.1592,,27258
77346,HUMBLE,TX,29.9916,-95.1718,,71119
77347,HUMBLE,TX,29.9987,-95.2618,P,0
77350,LEGGETT,TX,30.8176,-94.8703,P,264
77351,LIVINGSTON,TX,30.699,-94.847,,37353
77354,MAGNOLIA,TX,30.2098,-95.6623,,40625
77355,MAGNOLIA,TX,30.1601,-95.7287,,29300
77357,NEW CANEY,TX,30.1501,-95.1811,,30339
77358,NEW WAVERLY,TX,30.5698,-95.4269,,4817
77359,OAKHURST,TX,30.6993,-95.2984,,679
77360,ONALASKA,TX,30.8403,-95.1359,,5603
77362,PINEHURST,TX,30.1565,-95.6675,,7007
77364,POINTBLANK,TX,30.7696,-95.2236,,2312
77365,PORTER,TX,30.1002,-95.272,,42086
77367,RIVERSIDE,TX,30.8496,-95.3919,P,287
77368,ROMAYOR,TX,30.4359,-94.8222,P,30
77369,RYE,TX,30.4596,-94.7437,P,736
77371,SHEPHERD,TX,30.4912,-94.9844,,7870
77372,SPLENDORA,TX,30.2369,-95.1826,,13306
77373,SPRING,TX,30.0719,-95.3731,,63413
77374,THICKET,TX,30.3764,-94.6361,P,407
77375,TOMBALL,TX,30.0918,-95.5904,,65365
77376,VOTAW,TX,30.4334,-94.6805,P,468
77377,TOMBALL,TX,30.0579,-95.6826,,39711
77379,SPRING,TX,30.0385,-95.5326,,84704
77380,SPRING,TX,30.1407,-95.4724,,27651
77381,SPRING,TX,30.1772,-95.4967,,35191
77382,SPRING,TX,30.1994,-95.535,,37755
77383,SPRING,TX,30.0798,-95.4167,P,0
77384,CONROE,TX,30.2289,-95.5015,,23952
77385,CONROE,TX,30.193,-95.416,,27801
77386,SPRING,TX,30.1118,-95.3806,,66058
77387,SPRING,TX,30.0798,-95.4156,P,0
77388,SPRING,TX,30.0549,-95.4773,,51483
77389,SPRING,TX,30.1133,-95.5039,,41534
77391,SPRING,TX,30.0476,-95.5324,P,0
77393,SPRING,TX,30.1366,-95.4691,P,0
77396,HUMBLE,TX,29.9491,-95.269,,61058
77399,LIVINGSTON,TX,30.6407,-94.8714,U,0
77401,BELLAIRE,TX,29.7083,-95.4658,,17219
77402,BELLAIRE,TX,29.7056,-95.4586,P,0
77404,BAY CITY,TX,28.9825,-95.9693,P,0
77406,RICHMOND,TX,29.6424,-95.799,,58703
77407,RICHMOND,TX,29.6678,-95.7221,,74657
77410,CYPRESS,TX,29.9695,-95.6976,P,0
77411,ALIEF,TX,29.7106,-95.5963,P,0
77412,ALTAIR,TX,29.5915,-96.4845,P,57
77413,BARKER,TX,29.7844,-95.6849,P,0
77414,BAY CITY,TX,28.9181,-95.8348,,23416
77415,CEDAR LANE,TX,28.9236,-95.7249,P,82
77417,BEASLEY,TX,29.4562,-95.9792,,2154
77418,BELLVILLE,TX,29.9832,-96.2709,,10037
77419,BLESSING,TX,28.8435,-96.2328,P,1332
77420,BOLING,TX,29.2517,-95.9333,,2296
77422,BRAZORIA,TX,28.9639,-95.5741,,13731
77423,BROOKSHIRE,TX,29.8271,-96.0036,,16152
77426,CHAPPELL HILL,TX,30.1181,-96.2483,,2053
77428,COLLEGEPORT,TX,28.7171,-96.1436,P,84
77429,CYPRESS,TX,29.9857,-95.6548,,94176
77430,DAMON,TX,29.2783,-95.707,,2224
77431,DANCIGER,TX,29.1825,-95.8279,P,84
77432,DANEVANG,TX,29.0817,-96.1796,P,138
77433,CYPRESS,TX,29.9601,-95.7392,,106663
77434,EAGLE LAKE,TX,29.5598,-96.3285,,4411
77435,EAST BERNARD,TX,29.4827,-96.1645,,4795
77436,EGYPT,TX,29.4044,-96.2367,P,131
77437,EL CAMPO,TX,29.1955,-96.2198,,17832
77440,ELMATON,TX,28.8445,-96.0664,P,60
77441,FULSHEAR,TX,29.6819,-95.9203,,23111
77442,GARWOOD,TX,29.4308,-96.5266,,1151
77443,GLEN FLORA,TX,29.3502,-96.1734,P,151
77444,GUY,TX,29.3039,-95.7788,,1057
77445,HEMPSTEAD,TX,30.0593,-96.0748,,14160
77446,PRAIRIE VIEW,TX,30.0837,-95.9866,P,6236
77447,HOCKLEY,TX,30.0467,-95.8214,,20805
77448,HUNGERFORD,TX,29.4023,-96.0561,P,459
77449,KATY,TX,29.8325,-95.7324,,128180
77450,KATY,TX,29.7437,-95.7318,,72977
77451,KENDLETON,TX,29.4472,-96.0035,P,495
77452,KENNEY,TX,30.0477,-96.3267,P,0
77453,LANE CITY,TX,29.2155,-96.0266,P,243
77454,LISSIE,TX,29.5353,-96.2304,P,192
77455,LOUISE,TX,29.1715,-96.4484,,1751
77456,MARKHAM,TX,28.9703,-96.1039,P,1191
77457,MATAGORDA,TX,28.6483,-96.044,P,426
77458,MIDFIELD,TX,28.9533,-96.2548,P,397
77459,MISSOURI CITY,TX,29.5287,-95.5292,,79731
77460,NADA,TX,29.4044,-96.3862,P,52
77461,NEEDVILLE,TX,29.3781,-95.751,,11890
77463,OLD OCEAN,TX,29.1351,-95.7881,P,0
77464,ORCHARD,TX,29.5942,-95.9726,P,501
77465,PALACIOS,TX,28.7093,-96.1471,,7137
77466,PATTISON,TX,29.8098,-96.0076,P,627
77467,PIERCE,TX,29.2051,-96.1371,P,25
77468,PLEDGER,TX,29.1746,-95.8937,,20
77469,RICHMOND,TX,29.5503,-95.7182,,57925
77470,ROCK ISLAND,TX,29.4745,-96.5797,P,276
77471,ROSENBERG,TX,29.5335,-95.866,,42284
77473,SAN FELIPE,TX,29.8018,-96.1015,P,39
77474,SEALY,TX,29.7741,-96.1854,,14164
77475,SHERIDAN,TX,29.4453,-96.6535,P,718
77476,SIMONTON,TX,29.6778,-95.9921,P,601
77477,STAFFORD,TX,29.6274,-95.5626,,35520
77478,SUGAR LAND,TX,29.6182,-95.6082,,24536
77479,SUGAR LAND,TX,29.5578,-95.6336,,93180
77480,SWEENY,TX,29.086,-95.743,,7911
77481,THOMPSONS,TX,29.4686,-95.5775,P,132
77482,VAN VLECK,TX,29.0905,-95.9104,,2241
77483,WADSWORTH,TX,28.8313,-95.9395,P,226
77484,WALLER,TX,30.0846,-95.9328,,13449
77485,WALLIS,TX,29.6306,-96.0383,,3657
77486,WEST COLUMBIA,TX,29.1554,-95.6717,,7488
77487,SUGAR LAND,TX,29.6197,-95.6344,P,0
77488,WHARTON,TX,29.2673,-96.148,,13861
77489,MISSOURI CITY,TX,29.607,-95.513,,37257
77491,KATY,TX,29.7857,-95.8242,P,0
77492,KATY,TX,29.7857,-95.8242,P,0
77493,KATY,TX,29.8574,-95.8325,,51774
77494,KATY,TX,29.7402,-95.8302,,130872
77496,SUGAR LAND,TX,29.6324,-95.6195,P,0
77497,STAFFORD,TX,29.6156,-95.5575,P,0
77498,SUGAR LAND,TX,29.6398,-95.6511,,51472
77501,PASADENA,TX,29.6908,-95.2089,P,0
77502,PASADENA,TX,29.6783,-95.2034,,37495
77503,PASADENA,TX,29.7054,-95.1531,,24956
77504,PASADENA,TX,29.6461,-95.1886,,25728
77505,PASADENA,TX,29.6483,-95.1403,,23584
77506,PASADENA,TX,29.7188,-95.2032,,34431
77507,PASADENA,TX,29.6157,-95.0732,,770
77508,PASADENA,TX,29.6908,-95.2089,P,0
77510,SANTA FE,TX,29.3119,-95.0962,,14357
77511,ALVIN,TX,29.3938,-95.2451,,51093
77512,ALVIN,TX,29.4237,-95.2436,P,0
77514,ANAHUAC,TX,29.7072,-94.5715,,4926
77515,ANGLETON,TX,29.1753,-95.4531,,32710
77516,ANGLETON,TX,29.1692,-95.4319,P,0
77517,SANTA FE,TX,29.3626,-95.1339,,6058
77518,BACLIFF,TX,29.508,-94.9805,,9689
77519,BATSON,TX,30.2399,-94.5995,,882
77520,BAYTOWN,TX,29.7445,-95.0026,,38587
77521,BAYTOWN,TX,29.8029,-94.971,,65058
77522,BAYTOWN,TX,29.7355,-94.9773,P,0
77523,BAYTOWN,TX,29.7177,-94.9422,,27638
77530,CHANNELVIEW,TX,29.7869,-95.1092,,35319
77531,CLUTE,TX,29.0551,-95.3826,,15666
77532,CROSBY,TX,29.9357,-95.0594,,34679
77533,DAISETTA,TX,30.1104,-94.66,P,980
77534,DANBURY,TX,29.2165,-95.2905,,2998
77535,DAYTON,TX,30.0658,-94.9055,,36494
77536,DEER PARK,TX,29.7138,-95.117,,33693
77538,DEVERS,TX,30.0006,-94.5485,,809
77539,DICKINSON,TX,29.4566,-95.044,,48183
77541,FREEPORT,TX,29.0353,-95.3372,,16441
77542,FREEPORT,TX,28.9894,-95.4083,P,0
77545,FRESNO,TX,29.5455,-95.4684,,26563
77546,FRIENDSWOOD,TX,29.5208,-95.1906,,54670
77547,GALENA PARK,TX,29.7401,-95.2333,,9627
77549,FRIENDSWOOD,TX,29.5183,-95.2037,P,0
77550,GALVESTON,TX,29.3068,-94.7719,,24247
77551,GALVESTON,TX,29.277,-94.8343,,22677
77552,GALVESTON,TX,29.3121,-94.7644,P,0
77553,GALVESTON,TX,29.3298,-94.7975,P,0
77554,GALVESTON,TX,29.2203,-94.9448,,8961
77555,GALVESTON,TX,29.3108,-94.7773,U,9
77560,HANKAMER,TX,29.874,-94.5762,,960
77561,HARDIN,TX,30.1701,-94.7191,P,92
77562,HIGHLANDS,TX,29.8283,-95.0457,,11861
77563,HITCHCOCK,TX,29.3014,-95.0049,,9778
77564,HULL,TX,30.141,-94.6493,,2047
77565,KEMAH,TX,29.5351,-95.0327,,6966
77566,LAKE JACKSON,TX,29.0401,-95.4806,,30538
77568,LA MARQUE,TX,29.362,-94.9798,,20254
77571,LA PORTE,TX,29.683,-95.0482,,37018
77572,LA PORTE,TX,29.6657,-95.0195,P,0
77573,LEAGUE CITY,TX,29.5116,-95.0871,,95256
77574,LEAGUE CITY,TX,29.5074,-95.0949,P,0
77575,LIBERTY,TX,30.0989,-94.7268,,15768
77577,LIVERPOOL,TX,29.2581,-95.2307,,1250
77578,MANVEL,TX,29.4747,-95.3599,,25228
77580,MONT BELVIEU,TX,29.8672,-94.8861,P,99
77581,PEARLAND,TX,29.5514,-95.2835,,49198
77582,RAYWOOD,TX,30.0277,-94.6574,P,262
77583,ROSHARON,TX,29.4087,-95.4421,,43113
77584,PEARLAND,TX,29.5428,-95.3457,,93062
77585,SARATOGA,TX,30.3613,-94.5796,,892
77586,SEABROOK,TX,29.5783,-95.0385,,23503
77587,SOUTH HOUSTON,TX,29.6607,-95.2287,,16179
77588,PEARLAND,TX,29.5636,-95.2859,P,0
77590,TEXAS CITY,TX,29.402,-94.9248,,30758
77591,TEXAS CITY,TX,29.3993,-94.9966,,17347
77592,TEXAS CITY,TX,29.3837,-94.9028,P,0
77597,WALLISVILLE,TX,29.8595,-94.6881,,734
77598,WEBSTER,TX,29.5493,-95.1392,,25620
77611,BRIDGE CITY,TX,30.0103,-93.8146,,9993
77612,BUNA,TX,30.4184,-94.001,,9311
77613,CHINA,TX,30.0109,-94.363,P,1293
77614,DEWEYVILLE,TX,30.3411,-93.8021,P,468
77615,EVADALE,TX,30.3129,-94.0731,P,314
77616,FRED,TX,30.5615,-94.2439,,656
77617,GILCHRIST,TX,29.5152,-94.5179,P,125
77619,GROVES,TX,29.9496,-93.92,,17349
77622,HAMSHIRE,TX,29.8526,-94.3101,,1384
77623,HIGH ISLAND,TX,29.5603,-94.4222,P,340
77624,HILLISTER,TX,30.673,-94.38,,535
77625,KOUNTZE,TX,30.3544,-94.4114,,8599
77626,MAURICEVILLE,TX,30.2033,-93.8662,P,0
77627,NEDERLAND,TX,29.9885,-94.003,,23296
77629,NOME,TX,30.0015,-94.419,P,868
77630,ORANGE,TX,30.056,-93.8676,,29317
77631,ORANGE,TX,30.0926,-93.7365,P,0
77632,ORANGE,TX,30.2032,-93.8064,,22487
77639,ORANGEFIELD,TX,30.0613,-93.8497,P,0
77640,PORT ARTHUR,TX,29.8668,-93.9675,,16618
77641,PORT ARTHUR,TX,29.8987,-93.9288,P,0
77642,PORT ARTHUR,TX,29.9122,-93.9164,,39017
77643,PORT ARTHUR,TX,29.8993,-93.9296,P,0
77650,PORT BOLIVAR,TX,29.4799,-94.5758,P,2304
77651,PORT NECHES,TX,29.9815,-93.9398,,13705
77655,SABINE PASS,TX,29.6912,-94.0369,,291
77656,SILSBEE,TX,30.3842,-94.1709,,17199
77657,LUMBERTON,TX,30.2329,-94.1942,,22161
77659,SOUR LAKE,TX,30.1781,-94.4458,,4964
77660,SPURGER,TX,30.657,-94.1455,,1206
77661,STOWELL,TX,29.7905,-94.3844,P,429
77662,VIDOR,TX,30.1736,-94.0074,,25462
77663,VILLAGE MILLS,TX,30.5196,-94.4129,P,1291
77664,WARREN,TX,30.631,-94.4309,,2934
77665,WINNIE,TX,29.7916,-94.3499,,7080
77670,VIDOR,TX,30.1316,-94.0156,P,0
77701,BEAUMONT,TX,30.0945,-94.0934,,13232
77702,BEAUMONT,TX,30.0871,-94.1269,,2682
77703,BEAUMONT,TX,30.1137,-94.117,,13357
77704,BEAUMONT,TX,30.0859,-94.1014,P,0
77705,BEAUMONT,TX,29.918,-94.1832,,37950
77706,BEAUMONT,TX,30.1032,-94.1739,,29910
77707,BEAUMONT,TX,30.053,-94.1776,,17509
77708,BEAUMONT,TX,30.1448,-94.1651,,12478
77710,BEAUMONT,TX,30.0484,-94.0771,P,0
77713,BEAUMONT,TX,30.038,-94.2999,,14408
77720,BEAUMONT,TX,30.0859,-94.1014,P,0
77725,BEAUMONT,TX,30.0425,-94.1031,P,0
77726,BEAUMONT,TX,30.0859,-94.1014,P,0
77834,BRENHAM,TX,30.1667,-96.3977,P,0
77835,BURTON,TX,30.1842,-96.647,,2463
77837,CALVERT,TX,31.0106,-96.6656,,1362
77838,CHRIESMAN,TX,30.5995,-96.7709,P,0
77840,COLLEGE STATION,TX,30.6079,-96.324,,55180
77841,COLLEGE STATION,TX,30.6279,-96.3344,P,0
77842,COLLEGE STATION,TX,30.6279,-96.3344,P,0
77843,COLLEGE STATION,TX,30.6084,-96.3501,U,8701
77844,COLLEGE STATION,TX,30.5943,-96.3574,P,0
77850,CONCORD,TX,31.2651,-96.0995,P,0
77852,DEANVILLE,TX,30.4318,-96.7559,P,40
77853,DIME BOX,TX,30.3709,-96.8161,,1116
77855,FLYNN,TX,31.1439,-96.1346,P,159
77857,GAUSE,TX,30.7865,-96.6893,P,985
77862,KURTEN,TX,30.7869,-96.2636,P,0
77865,MARQUEZ,TX,31.2474,-96.2243,,1571
77867,MUMFORD,TX,30.7664,-96.5786,P,109
77870,NEW BADEN,TX,31.0593,-96.3994,P,0
77876,SHIRO,TX,30.6753,-95.8286,P,46
77878,SNOOK,TX,30.4704,-96.4802,P,602
77881,WELLBORN,TX,30.5351,-96.3017,P,0
77882,WHEELOCK,TX,30.9118,-96.4211,P,45
77901,VICTORIA,TX,28.8068,-96.9908,,40062
77902,VICTORIA,TX,28.8051,-97.0033,P,0
77903,VICTORIA,TX,28.8051,-97.0033,P,0
77904,VICTORIA,TX,28.9593,-96.9878,,29646
77905,VICTORIA,TX,28.7284,-97.0165,,15282
77950,AUSTWELL,TX,28.4023,-96.8545,P,159
77951,BLOOMINGTON,TX,28.7103,-96.8036,P,2246
77954,CUERO,TX,29.1113,-97.2515,,11458
77957,EDNA,TX,28.9802,-96.7319,,8730
77960,FANNIN,TX,28.6614,-97.2491,P,78
77961,FRANCITAS,TX,28.8652,-96.3618,P,161
77962,GANADO,TX,29.0508,-96.4403,,3425
77963,GOLIAD,TX,28.6571,-97.4661,,5184
77964,HALLETTSVILLE,TX,29.3812,-96.8133,,8233
77967,HOCHHEIM,TX,29.3129,-97.2908,P,0
77968,INEZ,TX,28.8903,-96.8036,,3398
77969,LA SALLE,TX,28.7689,-96.6492,P,206
77970,LA WARD,TX,28.8381,-96.4134,P,283
77971,LOLITA,TX,28.8533,-96.4901,,829
77973,MCFADDIN,TX,28.5321,-96.9662,P,47
77974,MEYERSVILLE,TX,28.8992,-97.287,,455
77975,MOULTON,TX,29.5535,-97.0969,,1753
77976,NURSERY,TX,28.9244,-97.1008,P,68
77977,PLACEDO,TX,28.6897,-96.8223,P,667
77978,POINT COMFORT,TX,28.6731,-96.5447,P,621
77979,PORT LAVACA,TX,28.5472,-96.6521,,16782
77982,PORT O CONNOR,TX,28.431,-96.4492,P,968
77983,SEADRIFT,TX,28.4022,-96.6645,,1732
77984,SHINER,TX,29.4209,-97.1472,,4490
77986,SUBLIME,TX,29.4051,-96.7144,,27
77987,SWEET HOME,TX,29.3452,-97.0707,P,161
77988,TELFERNER,TX,28.8537,-96.8775,P,353
77989,THOMASTON,TX,28.9968,-97.1575,P,0
77990,TIVOLI,TX,28.4078,-96.9523,,661
77991,VANDERBILT,TX,28.8068,-96.6042,P,428
77993,WEESATCHE,TX,28.8477,-97.4456,P,166
77994,WESTHOFF,TX,29.1588,-97.4959,,309
77995,YOAKUM,TX,29.2266,-97.0865,,9821
78001,ARTESIA WELLS,TX,28.264,-99.2801,P,4
78005,BIGFOOT,TX,29.0523,-98.8584,,823
78007,CALLIHAM,TX,28.4623,-98.3928,,95
78008,CAMPBELLTON,TX,28.7505,-98.2547,,224
78011,CHARLOTTE,TX,28.8361,-98.6951,,1943
78012,CHRISTINE,TX,28.7447,-98.4325,,373
78014,COTULLA,TX,28.3681,-99.0984,,5078
78017,DILLEY,TX,28.7423,-99.2323,,5912
78021,FOWLERTON,TX,28.5374,-98.8334,,160
78022,GEORGE WEST,TX,28.2271,-98.1,,4343
78026,JOURDANTON,TX,28.7241,-98.5656,,6181
78040,LAREDO,TX,27.5085,-99.5036,,36688
78041,LAREDO,TX,27.5706,-99.4263,,48491
78042,LAREDO,TX,27.5062,-99.5075,P,0
78043,LAREDO,TX,27.5305,-99.1392,,43473
78044,LAREDO,TX,27.7632,-98.963,P,200
78046,LAREDO,TX,27.375,-99.4557,,71956
78050,LEMING,TX,29.077,-98.509,P,583
78054,MACDONA,TX,29.3258,-98.6956,P,0
78057,MOORE,TX,28.9793,-98.962,,1220
78059,NATALIA,TX,29.1931,-98.8462,,5724
78060,OAKVILLE,TX,28.4259,-98.0997,,0
78061,PEARSALL,TX,28.8683,-99.1074,,10569
78062,PEGGY,TX,28.7394,-98.1783,P,3
78064,PLEASANTON,TX,28.9715,-98.4042,,15710
78065,POTEET,TX,29.0758,-98.6499,,12048
78067,SAN YGNACIO,TX,27.1502,-99.2921,,613
78069,SOMERSET,TX,29.1761,-98.6895,,5803
78071,THREE RIVERS,TX,28.5265,-98.1439,,4124
78072,TILDEN,TX,28.3493,-98.6353,,420
78075,WHITSETT,TX,28.6339,-98.2589,,103
78076,ZAPATA,TX,26.8636,-99.1663,,13033
78102,BEEVILLE,TX,28.4423,-97.7326,,27289
78104,BEEVILLE,TX,28.4006,-97.7481,P,47
78107,BERCLAIR,TX,28.5426,-97.6248,P,309
78111,ECLETO,TX,29.0401,-97.7525,,10
78113,FALLS CITY,TX,28.9269,-98.1432,,2253
78114,FLORESVILLE,TX,29.1273,-98.1977,,22178
78115,GERONIMO,TX,29.6628,-97.9668,P,0
78116,GILLETT,TX,29.1185,-97.7591,,218
78117,HOBSON,TX,28.9425,-97.9831,,649
78118,KARNES CITY,TX,28.8513,-97.9596,,4899
78119,KENEDY,TX,28.7934,-97.8432,,7048
78122,LEESVILLE,TX,29.4425,-97.717,,354
78131,NEW BRAUNFELS,TX,29.7026,-98.1245,P,0
78140,NIXON,TX,29.3761,-97.7359,,3607
78141,NORDHEIM,TX,28.9049,-97.6244,,726
78142,NORMANNA,TX,28.5303,-97.7894,P,119
78143,PANDORA,TX,29.2322,-97.8325,P,77
78144,PANNA MARIA,TX,28.9571,-97.8883,P,36
78145,PAWNEE,TX,28.6526,-97.9921,P,83
78146,PETTUS,TX,28.6194,-97.8445,P,624
78147,POTH,TX,29.0263,-98.1092,P,1825
78150,JBSA RANDOLPH,TX,29.5227,-98.2798,,9
78151,RUNGE,TX,28.8706,-97.6906,,1299
78159,SMILEY,TX,29.2339,-97.5885,,793
78160,STOCKDALE,TX,29.2205,-97.8918,,4528
78161,SUTHERLAND SPRINGS,TX,29.2901,-98.0457,,699
78162,TULETA,TX,28.5709,-97.7969,P,301
78164,YORKTOWN,TX,28.9868,-97.5401,,3464
78206,SAN ANTONIO,TX,29.4245,-98.4942,,0
78241,SAN ANTONIO,TX,29.3846,-98.5651,,0
78246,SAN ANTONIO,TX,29.4239,-98.4935,P,0
78248,SAN ANTONIO,TX,29.5887,-98.5377,,13825
78265,SAN ANTONIO,TX,29.4239,-98.4935,P,0
78268,SAN ANTONIO,TX,29.4953,-98.6186,P,0
78269,SAN ANTONIO,TX,29.4239,-98.4935,P,0
78270,SAN ANTONIO,TX,29.4239,-98.4935,P,0
78278,SAN ANTONIO,TX,29.4239,-98.4935,P,0
78279,SAN ANTONIO,TX,29.4239,-98.4935,P,0
78280,SAN ANTONIO,TX,29.4239,-98.4935,P,0
78283,SAN ANTONIO,TX,29.4239,-98.4935,P,0
78284,SAN ANTONIO,TX,29.5254,-98.4252,,0
78285,SAN ANTONIO,TX,29.4239,-98.4935,,0
78288,SAN ANTONIO,TX,29.4239,-98.4935,U,0
78289,SAN ANTONIO,TX,29.4239,-98.4935,U,0
78291,SAN ANTONIO,TX,29.4239,-98.4935,P,0
78292,SAN ANTONIO,TX,29.4239,-98.4935,P,0
78293,SAN ANTONIO,TX,29.4239,-98.4935,P,0
78294,SAN ANTONIO,TX,29.4239,-98.4935,P,0
78295,SAN ANTONIO,TX,29.4239,-98.4935,P,0
78296,SAN ANTONIO,TX,29.4239,-98.4935,P,0
78297,SAN ANTONIO,TX,29.4239,-98.4935,P,0
78298,SAN ANTONIO,TX,29.4239,-98.4935,P,0
78299,SAN ANTONIO,TX,29.4239,-98.4935,P,0
78330,AGUA DULCE,TX,27.7586,-97.906,,780
78332,ALICE,TX,27.681,-98.0842,,27152
78333,ALICE,TX,27.7518,-98.0694,P,0
78335,ARANSAS PASS,TX,27.9093,-97.1497,P,0
78336,ARANSAS PASS,TX,27.9351,-97.1659,,12009
78338,ARMSTRONG,TX,26.8528,-97.7139,P,50
78339,BANQUETE,TX,27.8142,-97.8033,P,625
78340,BAYSIDE,TX,28.1342,-97.1955,,341
78341,BENAVIDES,TX,27.5977,-98.4082,P,1420
78342,BEN BOLT,TX,27.6476,-98.0863,P,318
78343,BISHOP,TX,27.5861,-97.7397,,4405
78344,BRUNI,TX,27.4016,-98.8686,,278
78347,CHAPMAN RANCH,TX,27.5988,-97.462,P,19
78349,CONCEPCION,TX,27.3962,-98.3142,,325
78350,DINERO,TX,28.2266,-97.9616,P,0
78351,DRISCOLL,TX,27.6868,-97.7427,P,578
78352,EDROY,TX,27.9929,-97.6898,P,254
78353,ENCINO,TX,26.9899,-98.2392,,377
78355,FALFURRIAS,TX,27.2093,-98.261,,6982
78357,FREER,TX,27.8896,-98.6129,,2858
78358,FULTON,TX,28.2466,-96.7984,P,1137
78359,GREGORY,TX,27.9326,-97.2959,P,1920
78360,GUERRA,TX,26.9365,-98.8761,,22
78361,HEBBRONVILLE,TX,27.0713,-98.7851,,4842
78362,INGLESIDE,TX,27.8606,-97.2088,,10238
78363,KINGSVILLE,TX,27.4551,-97.6923,,29391
78364,KINGSVILLE,TX,27.5157,-97.8556,P,0
78368,MATHIS,TX,28.0729,-97.7728,,8726
78369,MIRANDO CITY,TX,27.4472,-99.024,,249
78370,ODEM,TX,27.9019,-97.5543,,4746
78371,OILTON,TX,27.4685,-98.9589,P,281
78372,ORANGE GROVE,TX,27.9402,-98.0456,,5550
78373,PORT ARANSAS,TX,27.7461,-97.1344,,3134
78374,PORTLAND,TX,27.8975,-97.3073,,20281
78375,PREMONT,TX,27.3653,-98.1455,,3109
78376,REALITOS,TX,27.3706,-98.5157,,307
78377,REFUGIO,TX,28.3479,-97.2167,,3547
78379,RIVIERA,TX,27.3099,-97.8567,,1624
78380,ROBSTOWN,TX,27.8161,-97.7364,,23386
78381,ROCKPORT,TX,28.0205,-97.0545,P,0
78382,ROCKPORT,TX,28.2099,-97.0257,,19432
78383,SANDIA,TX,28.0728,-97.9469,,3757
78384,SAN DIEGO,TX,27.8568,-98.3636,,5653
78385,SARITA,TX,27.1267,-97.7042,P,259
78387,SINTON,TX,28.0524,-97.5399,,9936
78389,SKIDMORE,TX,28.2166,-97.6884,,1535
78390,TAFT,TX,27.9995,-97.3654,,5447
78391,TYNAN,TX,28.1782,-97.7605,,261
78393,WOODSBORO,TX,28.221,-97.3472,,2137
78401,CORPUS CHRISTI,TX,27.7956,-97.3994,,4701
78402,CORPUS CHRISTI,TX,27.8259,-97.3988,,625
78403,CORPUS CHRISTI,TX,27.8006,-97.3964,P,0
78404,CORPUS CHRISTI,TX,27.7678,-97.3984,,15339
78405,CORPUS CHRISTI,TX,27.7693,-97.444,,14151
78406,CORPUS CHRISTI,TX,27.7721,-97.5129,,1185
78407,CORPUS CHRISTI,TX,27.8116,-97.4369,,1649
78408,CORPUS CHRISTI,TX,27.7952,-97.4477,,11023
78409,CORPUS CHRISTI,TX,27.8227,-97.5065,,2570
78410,CORPUS CHRISTI,TX,27.8401,-97.605,,29545
78411,CORPUS CHRISTI,TX,27.73,-97.3858,,26150
78412,CORPUS CHRISTI,TX,27.7006,-97.3374,,38783
78413,CORPUS CHRISTI,TX,27.6822,-97.4032,,37531
78414,CORPUS CHRISTI,TX,27.6646,-97.3681,,46972
78415,CORPUS CHRISTI,TX,27.6623,-97.4404,,38722
78416,CORPUS CHRISTI,TX,27.7511,-97.4402,,14103
78417,CORPUS CHRISTI,TX,27.7346,-97.4583,,4482
78418,CORPUS CHRISTI,TX,27.6245,-97.3313,,31787
78419,CORPUS CHRISTI,TX,27.6941,-97.2845,,441
78426,CORPUS CHRISTI,TX,27.8415,-97.5734,P,0
78427,CORPUS CHRISTI,TX,27.6956,-97.4148,P,0
78460,CORPUS CHRISTI,TX,27.8006,-97.3964,P,0
78463,CORPUS CHRISTI,TX,27.8006,-97.3964,P,0
78465,CORPUS CHRISTI,TX,27.8006,-97.3964,P,0
78466,CORPUS CHRISTI,TX,27.8006,-97.3964,P,0
78467,CORPUS CHRISTI,TX,27.8006,-97.3964,P,0
78468,CORPUS CHRISTI,TX,27.8006,-97.3964,P,0
78469,CORPUS CHRISTI,TX,27.7986,-97.4013,P,0
78480,CORPUS CHRISTI,TX,27.8006,-97.3964,P,0
78501,MCALLEN,TX,26.2146,-98.2391,,60817
78502,MCALLEN,TX,26.2053,-98.2256,P,0
78503,MCALLEN,TX,26.1511,-98.2501,,23604
78504,MCALLEN,TX,26.2801,-98.2384,,56830
78505,MCALLEN,TX,26.2031,-98.2299,P,0
78516,ALAMO,TX,26.1984,-98.1152,,34506
78520,BROWNSVILLE,TX,25.9676,-97.5475,,64949
78521,BROWNSVILLE,TX,25.9042,-97.4229,,88708
78522,BROWNSVILLE,TX,25.9016,-97.4975,P,0
78523,BROWNSVILLE,TX,25.9016,-97.4975,P,0
78526,BROWNSVILLE,TX,25.9927,-97.4498,,55164
78535,COMBES,TX,26.2542,-97.7326,P,679
78536,DELMITA,TX,26.6565,-98.4027,,322
78537,DONNA,TX,26.1665,-98.0812,,51962
78538,EDCOUCH,TX,26.309,-97.9592,,12278
78539,EDINBURG,TX,26.2812,-98.1826,,37686
78540,EDINBURG,TX,26.3014,-98.1634,P,11
78541,EDINBURG,TX,26.3757,-98.1455,,48513
78542,EDINBURG,TX,26.3547,-98.112,,84678
78543,ELSA,TX,26.3068,-97.9981,P,7535
78545,FALCON HEIGHTS,TX,26.5674,-99.1329,P,762
78547,GARCIASVILLE,TX,26.4312,-98.6438,P,413
78548,GRULLA,TX,26.3803,-98.549,P,1296
78549,HARGILL,TX,26.437,-97.9655,P,872
78550,HARLINGEN,TX,26.2456,-97.68,,56038
78551,HARLINGEN,TX,26.1906,-97.6956,P,0
78552,HARLINGEN,TX,26.1888,-97.7678,,38474
78553,HARLINGEN,TX,26.1908,-97.6964,P,0
78557,HIDALGO,TX,26.1134,-98.2552,,13986
78558,LA BLANCA,TX,26.3125,-98.0335,P,388
78559,LA FERIA,TX,26.1899,-97.8238,,12533
78560,LA JOYA,TX,26.2452,-98.4959,,4815
78561,LASARA,TX,26.4636,-97.9122,P,768
78562,LA VILLA,TX,26.3093,-97.9194,P,3081
78563,LINN,TX,26.5962,-98.2118,,201
78564,LOPENO,TX,26.6629,-99.0654,,103
78565,LOS EBANOS,TX,26.2456,-98.5611,P,319
78566,LOS FRESNOS,TX,26.1231,-97.4106,,23704
78567,LOS INDIOS,TX,26.0514,-97.7457,P,544
78568,LOZANO,TX,26.1887,-97.5428,P,0
78569,LYFORD,TX,26.3731,-97.7215,,3821
78570,MERCEDES,TX,26.1413,-97.9113,,32950
78573,MISSION,TX,26.3003,-98.2976,,42229
78574,MISSION,TX,26.3086,-98.3744,,63627
78575,OLMITO,TX,26.025,-97.549,,5270
78576,PENITAS,TX,26.2794,-98.4468,,13901
78577,PHARR,TX,26.1524,-98.2097,,79937
78578,PORT ISABEL,TX,26.026,-97.292,,10076
78579,PROGRESO,TX,26.0842,-97.9685,P,2637
78580,RAYMONDVILLE,TX,26.5225,-97.8441,,13208
78582,RIO GRANDE CITY,TX,26.5103,-98.6752,,43253
78583,RIO HONDO,TX,26.276,-97.4509,,5869
78584,ROMA,TX,26.5776,-99.0067,,19373
78585,SALINENO,TX,26.5157,-99.1125,P,4
78586,SAN BENITO,TX,26.095,-97.6381,,50135
78588,SAN ISIDRO,TX,26.7314,-98.4144,,168
78589,SAN JUAN,TX,26.1638,-98.1571,,38987
78590,SAN PERLITA,TX,26.45,-97.5836,P,468
78591,SANTA ELENA,TX,26.7067,-98.5811,,341
78592,SANTA MARIA,TX,26.0822,-97.8385,P,765
78593,SANTA ROSA,TX,26.2493,-97.8318,,5541
78594,SEBASTIAN,TX,26.3499,-97.7187,P,1796
78595,SULLIVAN CITY,TX,26.2592,-98.5579,,6304
78596,WESLACO,TX,26.1509,-98.0084,,37329
78597,SOUTH PADRE ISLAND,TX,26.3234,-97.2249,,2479
78598,PORT MANSFIELD,TX,26.5417,-97.5029,P,319
78599,WESLACO,TX,26.22,-97.9906,,32500
78604,BELMONT,TX,29.5233,-97.6838,P,0
78605,BERTRAM,TX,30.7314,-98.0448,,6246
78607,BLUFFTON,TX,30.8373,-98.4941,,180
78608,BRIGGS,TX,30.9267,-97.9962,,519
78609,BUCHANAN DAM,TX,30.7605,-98.4752,,1827
78614,COST,TX,29.4201,-97.5741,,459
78627,GEORGETOWN,TX,30.6326,-97.6768,P,0
78630,CEDAR PARK,TX,30.4978,-97.8159,P,0
78632,HARWOOD,TX,29.6775,-97.4862,,990
78633,GEORGETOWN,TX,30.7387,-97.7517,,27736
78635,HYE,TX,30.2308,-98.5542,,110
78650,MC DADE,TX,30.2811,-97.2139,,1918
78651,MC NEIL,TX,30.4554,-97.7167,P,0
78658,OTTINE,TX,29.5952,-97.5912,P,69
78677,WRIGHTSBORO,TX,29.3609,-97.5893,,55
78680,ROUND ROCK,TX,30.5082,-97.6789,P,0
78708,AUSTIN,TX,30.2669,-97.7428,P,0
78709,AUSTIN,TX,30.2669,-97.7428,P,0
78710,AUSTIN,TX,30.3296,-97.6669,,0
78711,AUSTIN,TX,30.2669,-97.7428,P,0
78713,AUSTIN,TX,30.2669,-97.7428,P,0
78714,AUSTIN,TX,30.2669,-97.7428,P,0
78715,AUSTIN,TX,30.2669,-97.7428,P,0
78716,AUSTIN,TX,30.2669,-97.7428,P,0
78718,AUSTIN,TX,30.2669,-97.7428,P,0
78720,AUSTIN,TX,30.2669,-97.7428,P,0
78755,AUSTIN,TX,30.2667,-97.7428,P,0
78760,AUSTIN,TX,30.2667,-97.7428,P,0
78761,AUSTIN,TX,30.2667,-97.7428,P,0
78762,AUSTIN,TX,30.2667,-97.7428,P,0
78763,AUSTIN,TX,30.2667,-97.7428,P,0
78764,AUSTIN,TX,30.2667,-97.7428,P,0
78765,AUSTIN,TX,30.2667,-97.7428,P,0
78766,AUSTIN,TX,30.2667,-97.7428,P,0
78767,AUSTIN,TX,30.2667,-97.7428,P,0
78768,AUSTIN,TX,30.2667,-97.7428,P,0
78772,AUSTIN,TX,30.2667,-97.7428,U,0
78773,AUSTIN,TX,30.2667,-97.7428,U,0
78774,AUSTIN,TX,30.2667,-97.7428,U,0
78778,AUSTIN,TX,30.2667,-97.7428,U,0
78779,AUSTIN,TX,30.2667,-97.7428,U,0
78783,AUSTIN,TX,30.2667,-97.7428,U,0
78799,AUSTIN,TX,30.2667,-97.7428,,0
78802,UVALDE,TX,29.2095,-99.7858,P,0
78827,ASHERTON,TX,28.4272,-99.734,,863
78828,BARKSDALE,TX,29.7541,-100.1441,,158
78829,BATESVILLE,TX,28.9353,-99.6234,,858
78830,BIG WELLS,TX,28.5258,-99.5923,,509
78834,CARRIZO SPRINGS,TX,28.423,-99.8992,,7061
78836,CATARINA,TX,28.3598,-99.586,P,85
78837,COMSTOCK,TX,29.872,-101.3818,,216
78838,CONCAN,TX,29.4949,-99.697,,264
78839,CRYSTAL CITY,TX,28.747,-99.9133,,7364
78843,LAUGHLIN AFB,TX,29.3576,-100.7808,,168
78847,DEL RIO,TX,29.3627,-100.8967,U,0
78850,D HANIS,TX,29.3592,-99.3024,,1075
78851,DRYDEN,TX,30.2186,-102.1067,,33
78870,KNIPPA,TX,29.2905,-99.6367,,868
78871,LANGTRY,TX,29.8066,-101.5606,P,23
78877,QUEMADO,TX,28.9991,-100.585,,936
78879,RIO FRIO,TX,29.6594,-99.7303,,307
78881,SABINAL,TX,29.3519,-99.4885,,1853
78884,UTOPIA,TX,29.5523,-99.5835,,949
78885,VANDERPOOL,TX,29.7673,-99.5292,,129
78886,YANCEY,TX,29.1534,-99.1575,,463
78931,BLEIBLERVILLE,TX,30.0218,-96.4435,,231
78932,CARMINE,TX,30.132,-96.6943,,897
78933,CAT SPRING,TX,29.786,-96.3758,,1531
78934,COLUMBUS,TX,29.729,-96.6025,,6770
78935,ALLEYTON,TX,29.7566,-96.4639,,922
78938,ELLINGER,TX,29.8437,-96.7091,,289
78940,FAYETTEVILLE,TX,29.9187,-96.6716,,1974
78941,FLATONIA,TX,29.7851,-97.1457,,3006
78943,GLIDDEN,TX,29.6976,-96.5992,,439
78944,INDUSTRY,TX,30.0004,-96.4961,,532
78945,LA GRANGE,TX,29.9007,-96.8986,,10483
78946,LEDBETTER,TX,30.2172,-96.7525,,1093
78949,MULDOON,TX,29.8165,-97.0643,,529
78950,NEW ULM,TX,29.881,-96.4834,,2151
78951,OAKLAND,TX,29.6017,-96.8294,P,78
78952,PLUM,TX,29.9347,-96.9672,P,0
78953,ROSANKY,TX,29.8396,-97.3714,,1350
78954,ROUND TOP,TX,30.0494,-96.7174,,1144
78956,SCHULENBURG,TX,29.6844,-96.9348,,5161
78957,SMITHVILLE,TX,30,-97.1891,,10214
78959,WAELDER,TX,29.6753,-97.2741,,1723
78960,WARDA,TX,30.0587,-96.923,P,0
78961,WARRENTON,TX,30.0108,-96.7162,P,0
78962,WEIMAR,TX,29.6507,-96.6455,,4617
78963,WEST POINT,TX,29.9357,-97.0533,,988
79002,ALANREED,TX,35.2268,-100.7591,P,26
79003,ALLISON,TX,35.642,-100.092,P,166
79005,BOOKER,TX,36.3523,-100.411,,1693
79011,BRISCOE,TX,35.6482,-100.204,,253
79012,BUSHLAND,TX,35.2664,-102.0978,P,22
79013,CACTUS,TX,36.0566,-101.9884,,2995
79016,CANYON,TX,34.9921,-101.9139,U,668
79021,COTTON CENTER,TX,33.9753,-102.0314,P,80
79024,DARROUZETT,TX,36.3907,-100.3612,P,388
79025,DAWN,TX,34.9331,-102.2126,P,73
79029,DUMAS,TX,35.8378,-101.893,,16230
79032,EDMONSON,TX,34.2765,-101.8965,P,125
79033,FARNSWORTH,TX,36.2963,-100.9843,P,97
79041,HALE CENTER,TX,34.0795,-101.9271,,2880
79043,HART,TX,34.3925,-102.1213,,1278
79053,LAZBUDDIE,TX,34.3847,-102.587,P,92
79054,LEFORS,TX,35.4548,-100.7606,P,505
79056,LIPSCOMB,TX,36.2219,-100.2827,,93
79057,MCLEAN,TX,35.2856,-100.6831,,966
79058,MASTERSON,TX,35.5692,-101.8329,,51
79061,MOBEETIE,TX,35.5041,-100.4145,,275
79062,MORSE,TX,35.9824,-101.518,,227
79063,NAZARETH,TX,34.5533,-102.1107,,667
79064,OLTON,TX,34.1772,-102.2002,,2456
79066,PAMPA,TX,35.5364,-100.9595,P,5
79073,PLAINVIEW,TX,34.1844,-101.7065,P,4
79077,SAMNORWOOD,TX,35.0524,-100.2766,P,0
79078,SANFORD,TX,35.7011,-101.56,P,333
79080,SKELLYTOWN,TX,35.5559,-101.1987,,528
79083,STINNETT,TX,35.8722,-101.55,,2321
79085,SUMMERFIELD,TX,34.7001,-102.49,,34
79093,WAKA,TX,36.2713,-101.0443,P,70
79097,WHITE DEER,TX,35.4221,-101.1985,,1093
79098,WILDORADO,TX,35.2237,-102.2654,,526
79166,AMARILLO,TX,35.2218,-101.8309,U,0
79168,AMARILLO,TX,35.2218,-101.8309,U,0
79172,AMARILLO,TX,35.2218,-101.8309,U,0
79174,AMARILLO,TX,35.2218,-101.8309,U,0
79178,AMARILLO,TX,35.1883,-101.8466,U,0
79185,AMARILLO,TX,35.2218,-101.8309,U,0
79221,AIKEN,TX,34.1418,-101.5269,P,0
79223,CEE VEE,TX,34.2295,-100.4572,,17
79230,DODSON,TX,34.6906,-100.0694,,149
79231,DOUGHERTY,TX,33.9446,-101.093,P,40
79233,ESTELLINE,TX,34.5304,-100.4441,P,146
79234,FLOMOT,TX,34.1981,-100.9961,,96
79235,FLOYDADA,TX,33.9544,-101.3028,,3296
79237,HEDLEY,TX,34.8734,-100.6969,,405
79240,LELIA LAKE,TX,34.8842,-100.7688,,62
79245,MEMPHIS,TX,34.6326,-100.5412,,2192
79247,ODELL,TX,34.3496,-99.4066,,54
79250,PETERSBURG,TX,33.8792,-101.6004,,1281
79251,QUAIL,TX,34.9236,-100.4256,,59
79255,QUITAQUE,TX,34.3845,-101.0253,,477
79256,ROARING SPRINGS,TX,33.8988,-100.7796,,287
79258,SOUTH PLAINS,TX,34.2233,-101.3098,P,20
79259,TELL,TX,34.3606,-100.4444,,48
79312,AMHERST,TX,34.0567,-102.3583,,934
79322,CROSBYTON,TX,33.6153,-101.1873,,1720
79324,ENOCHS,TX,33.9084,-102.6761,,50
79326,FIELDTON,TX,34.096,-102.2738,,22
79329,IDALOU,TX,33.7127,-101.6564,,3214
79338,LEVELLAND,TX,33.5872,-102.3776,P,0
79343,LORENZO,TX,33.6447,-101.5416,,1325
79344,MAPLE,TX,33.866,-102.8945,,2
79345,MEADOW,TX,33.3216,-102.3354,,857
79350,NEW DEAL,TX,33.7593,-101.837,P,341
79351,ODONNELL,TX,33.0127,-101.8168,,1061
79353,PEP,TX,33.7933,-102.5777,,38
79357,RALLS,TX,33.6141,-101.3337,,1972
79358,ROPESVILLE,TX,33.471,-102.1758,,1335
79366,RANSOM CANYON,TX,33.5311,-101.6856,,1189
79367,SMYER,TX,33.5918,-102.1692,P,594
79369,SPADE,TX,33.9256,-102.1564,P,83
79372,SUNDOWN,TX,33.4482,-102.4898,P,1247
79376,TOKIO,TX,33.2666,-102.6653,,64
79377,WELCH,TX,32.947,-102.3561,,276
79378,WELLMAN,TX,33.0248,-102.4658,P,241
79380,WHITHARRAL,TX,33.7354,-102.3418,P,119
79381,WILSON,TX,33.317,-101.6841,,1297
79383,NEW HOME,TX,33.3451,-101.9204,P,75
79430,LUBBOCK,TX,33.5897,-101.8926,U,0
79452,LUBBOCK,TX,33.5776,-101.8549,P,0
79453,LUBBOCK,TX,33.5776,-101.8549,P,0
79457,LUBBOCK,TX,33.5776,-101.8549,U,0
79464,LUBBOCK,TX,33.5776,-101.8549,P,0
79490,LUBBOCK,TX,33.5776,-101.8549,P,0
79491,LUBBOCK,TX,33.5776,-101.8549,U,0
79493,LUBBOCK,TX,33.5776,-101.8549,P,0
79499,LUBBOCK,TX,33.5776,-101.8549,P,0
79505,BENJAMIN,TX,33.5556,-99.8271,,223
79516,DUNN,TX,32.5669,-100.8851,P,0
79519,GOLDSBORO,TX,32.0521,-99.6647,,70
79525,HAWLEY,TX,32.6348,-99.838,,2902
79532,LORAINE,TX,32.4012,-100.7147,,796
79538,NOVICE,TX,31.9545,-99.6581,,243
79548,RULE,TX,33.063,-99.8622,,165
79550,SNYDER,TX,32.7176,-100.9175,P,0
79560,SYLVESTER,TX,32.682,-100.2119,,143
79563,TYE,TX,32.4213,-99.8848,,1152
79565,WESTBROOK,TX,32.3432,-101.105,,252
79566,WINGATE,TX,32.0573,-100.1287,,245
79604,ABILENE,TX,32.4487,-99.7329,P,0
79605,ABILENE,TX,32.426,-99.7995,,30239
79607,DYESS AFB,TX,32.4204,-99.8381,,2983
79608,ABILENE,TX,32.4487,-99.7329,P,0
79697,ABILENE,TX,32.43,-99.7499,U,0
79698,ABILENE,TX,32.4766,-99.7351,U,0
79699,ABILENE,TX,32.4702,-99.7084,U,169
79718,BALMORHEA,TX,30.9928,-103.6608,,668
79721,BIG SPRING,TX,32.2506,-101.4786,P,1660
79733,FORSAN,TX,32.1209,-101.3574,P,225
79734,FORT DAVIS,TX,30.7587,-103.8642,,1811
79740,GIRVIN,TX,31.0337,-102.3407,,0
79748,KNOTT,TX,32.397,-101.6398,,103
79758,GARDENDALE,TX,32.0369,-102.3945,,2898
79769,ODESSA,TX,31.8458,-102.3673,P,13
79770,ORLA,TX,31.8285,-103.9136,P,38
79776,PENWELL,TX,31.7718,-102.6068,P,3
79780,SARAGOSA,TX,31.0428,-103.6364,P,101
79781,SHEFFIELD,TX,30.6837,-101.9819,P,222
79783,TARZAN,TX,32.3758,-102.0346,,142
79785,TOYAH,TX,31.282,-103.8057,P,68
79786,TOYAHVALE,TX,30.9445,-103.7887,P,0
79788,WICKETT,TX,31.5696,-103.0063,P,438
79821,ANTHONY,TX,31.9683,-106.6014,,6416
79830,ALPINE,TX,29.9112,-103.4604,,7621
79831,ALPINE,TX,30.3068,-103.6704,P,0
79832,ALPINE,TX,30.3641,-103.6472,U,471
79834,BIG BEND NATIONAL PARK,TX,29.3635,-103.2121,P,150
79835,CANUTILLO,TX,31.9357,-106.5952,,12456
79836,CLINT,TX,31.5515,-106.1998,,7217
79837,DELL CITY,TX,31.8705,-105.4756,P,389
79838,FABENS,TX,31.4733,-106.1586,P,7895
79839,FORT HANCOCK,TX,31.4425,-105.6732,,1113
79842,MARATHON,TX,30.0175,-102.9277,P,445
79843,MARFA,TX,29.9437,-104.3867,,2275
79845,PRESIDIO,TX,29.6372,-104.2022,P,3717
79846,REDFORD,TX,29.4706,-104.0044,P,49
79847,SALT FLAT,TX,31.7559,-104.7633,,151
79848,SANDERSON,TX,30.1221,-102.3984,P,696
79849,SAN ELIZARIO,TX,31.5766,-106.2599,,14310
79851,SIERRA BLANCA,TX,31.1385,-105.2825,P,1339
79852,TERLINGUA,TX,29.3315,-103.5922,,712
79853,TORNILLO,TX,31.4467,-106.0692,P,3638
79854,VALENTINE,TX,30.7494,-104.5408,,163
79855,VAN HORN,TX,31.1409,-104.4911,P,2071
79901,EL PASO,TX,31.763,-106.4856,,10027
79902,EL PASO,TX,31.7861,-106.496,,20071
79903,EL PASO,TX,31.7869,-106.4454,,16425
79905,EL PASO,TX,31.7677,-106.4304,,22483
79906,EL PASO,TX,31.8102,-106.4029,,5336
79907,EL PASO,TX,31.7119,-106.3263,,50971
79908,EL PASO,TX,31.8238,-106.3879,,3583
79910,EL PASO,TX,31.7952,-106.376,,0
79911,EL PASO,TX,31.9411,-106.5242,,8023
79913,EL PASO,TX,31.7589,-106.4866,P,0
79914,EL PASO,TX,31.7589,-106.4866,P,0
79915,EL PASO,TX,31.7452,-106.3833,,35234
79916,FORT BLISS,TX,31.811,-106.4182,,3800
79917,EL PASO,TX,31.7589,-106.4866,P,0
79918,FORT BLISS,TX,31.8296,-106.3851,,362
79920,EL PASO,TX,31.8212,-106.4608,P,51
79922,EL PASO,TX,31.8148,-106.5605,,8133
79923,EL PASO,TX,31.7589,-106.4866,P,0
79926,EL PASO,TX,31.7589,-106.4866,P,0
79929,EL PASO,TX,31.7605,-106.4808,P,0
79930,EL PASO,TX,31.8131,-106.4671,,24553
79931,EL PASO,TX,31.7589,-106.4866,P,0
79932,EL PASO,TX,31.878,-106.6081,,29996
79935,EL PASO,TX,31.7696,-106.3321,,17534
79937,EL PASO,TX,31.7589,-106.4866,P,0
79940,EL PASO,TX,31.7589,-106.4866,P,0
79941,EL PASO,TX,31.7589,-106.4866,P,0
79942,EL PASO,TX,31.7589,-106.4866,P,0
79943,EL PASO,TX,31.7589,-106.4866,P,0
79944,EL PASO,TX,31.7589,-106.4866,P,0
79945,EL PASO,TX,31.7589,-106.4866,P,0
79946,EL PASO,TX,31.7589,-106.4866,P,0
79947,EL PASO,TX,31.7589,-106.4866,P,0
79948,EL PASO,TX,31.7589,-106.4866,P,0
79949,EL PASO,TX,31.7589,-106.4866,P,0
79950,EL PASO,TX,31.7589,-106.4866,P,0
79951,EL PASO,TX,31.7589,-106.4866,P,0
79952,EL PASO,TX,31.7589,-106.4866,P,0
79953,EL PASO,TX,31.7589,-106.4866,P,0
79954,EL PASO,TX,31.7589,-106.4866,P,0
79955,EL PASO,TX,31.7589,-106.4866,P,0
79958,EL PASO,TX,31.7589,-106.4866,U,0
79960,EL PASO,TX,31.7589,-106.4866,U,0
79961,EL PASO,TX,31.7589,-106.4866,U,0
79968,EL PASO,TX,31.7661,-106.5032,U,0
79976,EL PASO,TX,31.7589,-106.4866,U,0
79978,EL PASO,TX,31.7589,-106.4866,U,0
79980,EL PASO,TX,31.7589,-106.4866,U,0
79995,EL PASO,TX,31.7589,-106.4866,P,0
79996,EL PASO,TX,31.7589,-106.4866,P,0
79997,EL PASO,TX,31.7589,-106.4866,P,0
79998,EL PASO,TX,31.7589,-106.4866,P,0
79999,EL PASO,TX,31.7589,-106.4866,P,0
